<?xml version="1.0" encoding="UTF-8"?>
<kml xmlns="http://www.opengis.net/kml/2.2">
  <Document>
    <name>Budapest</name>
    <description/>
    <Style id="icon-1899-0288D1-nodesc-normal">
      <IconStyle>
        <color>ffd18802</color>
        <scale>1</scale>
        <Icon>
          <href>https://www.gstatic.com/mapspro/images/stock/503-wht-blank_maps.png</href>
        </Icon>
        <hotSpot x="32" xunits="pixels" y="64" yunits="insetPixels"/>
      </IconStyle>
      <LabelStyle>
        <scale>0</scale>
      </LabelStyle>
      <BalloonStyle>
        <text><![CDATA[<h3>$[name]</h3>]]></text>
      </BalloonStyle>
    </Style>
    <Style id="icon-1899-0288D1-nodesc-highlight">
      <IconStyle>
        <color>ffd18802</color>
        <scale>1</scale>
        <Icon>
          <href>https://www.gstatic.com/mapspro/images/stock/503-wht-blank_maps.png</href>
        </Icon>
        <hotSpot x="32" xunits="pixels" y="64" yunits="insetPixels"/>
      </IconStyle>
      <LabelStyle>
        <scale>1</scale>
      </LabelStyle>
      <BalloonStyle>
        <text><![CDATA[<h3>$[name]</h3>]]></text>
      </BalloonStyle>
    </Style>
    <StyleMap id="icon-1899-0288D1-nodesc">
      <Pair>
        <key>normal</key>
        <styleUrl>#icon-1899-0288D1-nodesc-normal</styleUrl>
      </Pair>
      <Pair>
        <key>highlight</key>
        <styleUrl>#icon-1899-0288D1-nodesc-highlight</styleUrl>
      </Pair>
    </StyleMap>
    <Folder>
      <name>Capa sin título</name>
      <Placemark>
        <name>Zichy Jenő u. 22</name>
        <styleUrl>#icon-1899-0288D1-nodesc</styleUrl>
        <Point>
          <coordinates>
            19.057361,47.504713,0
          </coordinates>
        </Point>
      </Placemark>
      <Placemark>
        <name>Pastelería Ruszwurm</name>
        <styleUrl>#icon-1899-0288D1-nodesc</styleUrl>
        <Point>
          <coordinates>
            19.033004,47.501228,0
          </coordinates>
        </Point>
      </Placemark>
      <Placemark>
        <name>Iglesia de Matías</name>
        <styleUrl>#icon-1899-0288D1-nodesc</styleUrl>
        <Point>
          <coordinates>
            19.034162,47.501954,0
          </coordinates>
        </Point>
      </Placemark>
      <Placemark>
        <name>bastion de los pescadores</name>
        <styleUrl>#icon-1899-0288D1-nodesc</styleUrl>
        <Point>
          <coordinates>
            19.034781,47.502183,0
          </coordinates>
        </Point>
      </Placemark>
      <Placemark>
        <name>Bazaar de los Jardines del Castillo</name>
        <styleUrl>#icon-1899-0288D1-nodesc</styleUrl>
        <Point>
          <coordinates>
            19.042429,47.495357,0
          </coordinates>
        </Point>
      </Placemark>
      <Placemark>
        <name>Castillo de Buda</name>
        <styleUrl>#icon-1899-0288D1-nodesc</styleUrl>
        <Point>
          <coordinates>
            19.039567,47.496205,0
          </coordinates>
        </Point>
      </Placemark>
      <Placemark>
        <name>Baños Széchenyi</name>
        <styleUrl>#icon-1899-0288D1-nodesc</styleUrl>
        <Point>
          <coordinates>
            19.082379,47.518657,0
          </coordinates>
        </Point>
      </Placemark>
      <Placemark>
        <name>Castillo de Vajdahunyad</name>
        <styleUrl>#icon-1899-0288D1-nodesc</styleUrl>
        <Point>
          <coordinates>
            19.083059,47.51489,0
          </coordinates>
        </Point>
      </Placemark>
      <Placemark>
        <name>Plaza de los Héroes</name>
        <styleUrl>#icon-1899-0288D1-nodesc</styleUrl>
        <Point>
          <coordinates>
            19.077863,47.514943,0
          </coordinates>
        </Point>
      </Placemark>
      <Placemark>
        <name>Andrássy út</name>
        <styleUrl>#icon-1899-0288D1-nodesc</styleUrl>
        <Point>
          <coordinates>
            19.05925,47.502475,0
          </coordinates>
        </Point>
      </Placemark>
      <Placemark>
        <name>Ópera Nacional de Hungría</name>
        <styleUrl>#icon-1899-0288D1-nodesc</styleUrl>
        <Point>
          <coordinates>
            19.058308,47.502717,0
          </coordinates>
        </Point>
      </Placemark>
      <Placemark>
        <name>Basílica de San Esteban</name>
        <styleUrl>#icon-1899-0288D1-nodesc</styleUrl>
        <Point>
          <coordinates>
            19.053989,47.50089,0
          </coordinates>
        </Point>
      </Placemark>
      <Placemark>
        <name>New York Café</name>
        <styleUrl>#icon-1899-0288D1-nodesc</styleUrl>
        <Point>
          <coordinates>
            19.070456,47.498726,0
          </coordinates>
        </Point>
      </Placemark>
      <Placemark>
        <name>Kőleves kert</name>
        <styleUrl>#icon-1899-0288D1-nodesc</styleUrl>
        <Point>
          <coordinates>
            19.061255,47.499111,0
          </coordinates>
        </Point>
      </Placemark>
      <Placemark>
        <name>Raoul Wallenberg Holocaust Memorial Park</name>
        <styleUrl>#icon-1899-0288D1-nodesc</styleUrl>
        <Point>
          <coordinates>
            19.061213,47.496404,0
          </coordinates>
        </Point>
      </Placemark>
      <Placemark>
        <name><![CDATA[Heroes' Temple]]></name>
        <styleUrl>#icon-1899-0288D1-nodesc</styleUrl>
        <Point>
          <coordinates>
            19.060666,47.496416,0
          </coordinates>
        </Point>
      </Placemark>
      <Placemark>
        <name>Gran Sinagoga de Budapest</name>
        <styleUrl>#icon-1899-0288D1-nodesc</styleUrl>
        <Point>
          <coordinates>
            19.060614,47.495907,0
          </coordinates>
        </Point>
      </Placemark>
      <Placemark>
        <name>Plaza de Erzsébet</name>
        <styleUrl>#icon-1899-0288D1-nodesc</styleUrl>
        <Point>
          <coordinates>
            19.052665,47.498231,0
          </coordinates>
        </Point>
      </Placemark>
      <Placemark>
        <name>Vörösmarty tér</name>
        <styleUrl>#icon-1899-0288D1-nodesc</styleUrl>
        <Point>
          <coordinates>
            19.050703,47.496484,0
          </coordinates>
        </Point>
      </Placemark>
      <Placemark>
        <name><![CDATA[Centrál Grand Cafe & Bar]]></name>
        <styleUrl>#icon-1899-0288D1-nodesc</styleUrl>
        <Point>
          <coordinates>
            19.056884,47.491985,0
          </coordinates>
        </Point>
      </Placemark>
      <Placemark>
        <name>Párisi Udvar</name>
        <styleUrl>#icon-1899-0288D1-nodesc</styleUrl>
        <Point>
          <coordinates>
            19.054862,47.493314,0
          </coordinates>
        </Point>
      </Placemark>
      <Placemark>
        <name>Váci Street</name>
        <styleUrl>#icon-1899-0288D1-nodesc</styleUrl>
        <Point>
          <coordinates>
            19.053841,47.49189,0
          </coordinates>
        </Point>
      </Placemark>
      <Placemark>
        <name>Szent István Király szobra</name>
        <styleUrl>#icon-1899-0288D1-nodesc</styleUrl>
        <Point>
          <coordinates>
            19.052285,47.484781,0
          </coordinates>
        </Point>
      </Placemark>
      <Placemark>
        <name>Mercado Central de Budapest</name>
        <styleUrl>#icon-1899-0288D1-nodesc</styleUrl>
        <Point>
          <coordinates>
            19.058493,47.487085,0
          </coordinates>
        </Point>
      </Placemark>
      <Placemark>
        <name>Puente de la Libertad</name>
        <styleUrl>#icon-1899-0288D1-nodesc</styleUrl>
        <Point>
          <coordinates>
            19.055077,47.485762,0
          </coordinates>
        </Point>
      </Placemark>
      <Placemark>
        <name>Duna korzó</name>
        <styleUrl>#icon-1899-0288D1-nodesc</styleUrl>
        <Point>
          <coordinates>
            19.049414,47.494179,0
          </coordinates>
        </Point>
      </Placemark>
      <Placemark>
        <name>Puente de las Cadenas</name>
        <styleUrl>#icon-1899-0288D1-nodesc</styleUrl>
        <Point>
          <coordinates>
            19.043699,47.498993,0
          </coordinates>
        </Point>
      </Placemark>
      <Placemark>
        <name>Zapatos en la Orilla del Danubio</name>
        <styleUrl>#icon-1899-0288D1-nodesc</styleUrl>
        <Point>
          <coordinates>
            19.044802,47.503927,0
          </coordinates>
        </Point>
      </Placemark>
      <Placemark>
        <name>parlamento</name>
        <styleUrl>#icon-1899-0288D1-nodesc</styleUrl>
        <Point>
          <coordinates>
            19.045669,47.507121,0
          </coordinates>
        </Point>
      </Placemark>
      <Placemark>
        <name>Parque de la ciudad</name>
        <styleUrl>#icon-1899-0288D1-nodesc</styleUrl>
        <Point>
          <coordinates>
            19.085244,47.514292,0
          </coordinates>
        </Point>
      </Placemark>
    </Folder>
  </Document>
</kml>
