<?xml version="1.0" encoding="UTF-8"?>
<kml xmlns="http://www.opengis.net/kml/2.2">
  <Document>
    <name>Madrid</name>
    <description/>
    <Style id="icon-1899-0288D1-nodesc-normal">
      <IconStyle>
        <color>ffd18802</color>
        <scale>1</scale>
        <Icon>
          <href>https://www.gstatic.com/mapspro/images/stock/503-wht-blank_maps.png</href>
        </Icon>
        <hotSpot x="32" xunits="pixels" y="64" yunits="insetPixels"/>
      </IconStyle>
      <LabelStyle>
        <scale>0</scale>
      </LabelStyle>
      <BalloonStyle>
        <text><![CDATA[<h3>$[name]</h3>]]></text>
      </BalloonStyle>
    </Style>
    <Style id="icon-1899-0288D1-nodesc-highlight">
      <IconStyle>
        <color>ffd18802</color>
        <scale>1</scale>
        <Icon>
          <href>https://www.gstatic.com/mapspro/images/stock/503-wht-blank_maps.png</href>
        </Icon>
        <hotSpot x="32" xunits="pixels" y="64" yunits="insetPixels"/>
      </IconStyle>
      <LabelStyle>
        <scale>1</scale>
      </LabelStyle>
      <BalloonStyle>
        <text><![CDATA[<h3>$[name]</h3>]]></text>
      </BalloonStyle>
    </Style>
    <StyleMap id="icon-1899-0288D1-nodesc">
      <Pair>
        <key>normal</key>
        <styleUrl>#icon-1899-0288D1-nodesc-normal</styleUrl>
      </Pair>
      <Pair>
        <key>highlight</key>
        <styleUrl>#icon-1899-0288D1-nodesc-highlight</styleUrl>
      </Pair>
    </StyleMap>
    <Folder>
      <name>Capa sin título</name>
      <Placemark>
        <name>Mercado Central de Atarazanas</name>
        <styleUrl>#icon-1899-0288D1-nodesc</styleUrl>
        <Point>
          <coordinates>
            -4.4240713,36.718456,0
          </coordinates>
        </Point>
      </Placemark>
      <Placemark>
        <name>C. las Trece Rosas, 2</name>
        <styleUrl>#icon-1899-0288D1-nodesc</styleUrl>
        <Point>
          <coordinates>
            -3.5401798,40.3760068,0
          </coordinates>
        </Point>
      </Placemark>
      <Placemark>
        <name>Repetidor TDT Soto del Real</name>
        <styleUrl>#icon-1899-0288D1-nodesc</styleUrl>
        <Point>
          <coordinates>
            -3.7501321,40.724338,0
          </coordinates>
        </Point>
      </Placemark>
      <Placemark>
        <name>Castillo de Manzanares el Real</name>
        <styleUrl>#icon-1899-0288D1-nodesc</styleUrl>
        <Point>
          <coordinates>
            -3.8618982,40.7271914,0
          </coordinates>
        </Point>
      </Placemark>
      <Placemark>
        <name>Asador Los Pepes</name>
        <styleUrl>#icon-1899-0288D1-nodesc</styleUrl>
        <Point>
          <coordinates>
            -3.786818,40.7527804,0
          </coordinates>
        </Point>
      </Placemark>
      <Placemark>
        <name>Chocolatería San Ginés</name>
        <styleUrl>#icon-1899-0288D1-nodesc</styleUrl>
        <Point>
          <coordinates>
            -3.7069176,40.4167407,0
          </coordinates>
        </Point>
      </Placemark>
      <Placemark>
        <name>Fotocasión</name>
        <styleUrl>#icon-1899-0288D1-nodesc</styleUrl>
        <Point>
          <coordinates>
            -3.7074456,40.4071773,0
          </coordinates>
        </Point>
      </Placemark>
      <Placemark>
        <name>Círculo de Bellas Artes</name>
        <styleUrl>#icon-1899-0288D1-nodesc</styleUrl>
        <Point>
          <coordinates>
            -3.6965333,40.4183042,0
          </coordinates>
        </Point>
      </Placemark>
      <Placemark>
        <name>La Violeta</name>
        <styleUrl>#icon-1899-0288D1-nodesc</styleUrl>
        <Point>
          <coordinates>
            -3.7007342,40.4165384,0
          </coordinates>
        </Point>
      </Placemark>
      <Placemark>
        <name>Plaza de España</name>
        <styleUrl>#icon-1899-0288D1-nodesc</styleUrl>
        <Point>
          <coordinates>
            -3.7132356,40.4236051,0
          </coordinates>
        </Point>
      </Placemark>
      <Placemark>
        <name>Teatro Real</name>
        <styleUrl>#icon-1899-0288D1-nodesc</styleUrl>
        <Point>
          <coordinates>
            -3.7102972,40.4181323,0
          </coordinates>
        </Point>
      </Placemark>
      <Placemark>
        <name>Pastelería La Mallorquina</name>
        <styleUrl>#icon-1899-0288D1-nodesc</styleUrl>
        <Point>
          <coordinates>
            -3.7047477,40.416665,0
          </coordinates>
        </Point>
      </Placemark>
      <Placemark>
        <name>Parque de El Retiro</name>
        <styleUrl>#icon-1899-0288D1-nodesc</styleUrl>
        <Point>
          <coordinates>
            -3.6834657,40.415258,0
          </coordinates>
        </Point>
      </Placemark>
      <Placemark>
        <name>Puerta de Alcalá</name>
        <styleUrl>#icon-1899-0288D1-nodesc</styleUrl>
        <Point>
          <coordinates>
            -3.688737,40.419992,0
          </coordinates>
        </Point>
      </Placemark>
      <Placemark>
        <name>Restaurante Botin</name>
        <styleUrl>#icon-1899-0288D1-nodesc</styleUrl>
        <Point>
          <coordinates>
            -3.7079154,40.4141803,0
          </coordinates>
        </Point>
      </Placemark>
      <Placemark>
        <name>Puerta del Sol</name>
        <styleUrl>#icon-1899-0288D1-nodesc</styleUrl>
        <Point>
          <coordinates>
            -3.7032922,40.4167321,0
          </coordinates>
        </Point>
      </Placemark>
      <Placemark>
        <name>Museo del Jamón</name>
        <styleUrl>#icon-1899-0288D1-nodesc</styleUrl>
        <Point>
          <coordinates>
            -3.7056364,40.4162931,0
          </coordinates>
        </Point>
      </Placemark>
      <Placemark>
        <name>Barrio de La Latina</name>
        <styleUrl>#icon-1899-0288D1-nodesc</styleUrl>
        <Point>
          <coordinates>
            -3.7106186,40.4115369,0
          </coordinates>
        </Point>
      </Placemark>
      <Placemark>
        <name>Templo de Debod</name>
        <styleUrl>#icon-1899-0288D1-nodesc</styleUrl>
        <Point>
          <coordinates>
            -3.7177695,40.4240216,0
          </coordinates>
        </Point>
      </Placemark>
      <Placemark>
        <name>Palacio Real de Madrid</name>
        <styleUrl>#icon-1899-0288D1-nodesc</styleUrl>
        <Point>
          <coordinates>
            -3.714312,40.417955,0
          </coordinates>
        </Point>
      </Placemark>
      <Placemark>
        <name>Catedral de Santa María la Real de la Almudena</name>
        <styleUrl>#icon-1899-0288D1-nodesc</styleUrl>
        <Point>
          <coordinates>
            -3.714552,40.415651,0
          </coordinates>
        </Point>
      </Placemark>
      <Placemark>
        <name>Plaza del Callao</name>
        <styleUrl>#icon-1899-0288D1-nodesc</styleUrl>
        <Point>
          <coordinates>
            -3.7059113,40.4199109,0
          </coordinates>
        </Point>
      </Placemark>
      <Placemark>
        <name>Plaza mayor</name>
        <styleUrl>#icon-1899-0288D1-nodesc</styleUrl>
        <Point>
          <coordinates>
            -3.7074023,40.4155788,0
          </coordinates>
        </Point>
      </Placemark>
      <Placemark>
        <name>Plaza de la Villa</name>
        <styleUrl>#icon-1899-0288D1-nodesc</styleUrl>
        <Point>
          <coordinates>
            -3.7105431,40.4152002,0
          </coordinates>
        </Point>
      </Placemark>
      <Placemark>
        <name>Terraza Corte ingles Callao</name>
        <styleUrl>#icon-1899-0288D1-nodesc</styleUrl>
        <Point>
          <coordinates>
            -3.7054214,40.4197479,0
          </coordinates>
        </Point>
      </Placemark>
    </Folder>
  </Document>
</kml>
