<?xml version="1.0" encoding="UTF-8"?>
<kml xmlns="http://www.opengis.net/kml/2.2">
  <Document>
    <name>Munich</name>
    <description/>
    <Style id="icon-1899-0288D1-nodesc-normal">
      <IconStyle>
        <color>ffd18802</color>
        <scale>1</scale>
        <Icon>
          <href>https://www.gstatic.com/mapspro/images/stock/503-wht-blank_maps.png</href>
        </Icon>
        <hotSpot x="32" xunits="pixels" y="64" yunits="insetPixels"/>
      </IconStyle>
      <LabelStyle>
        <scale>0</scale>
      </LabelStyle>
      <BalloonStyle>
        <text><![CDATA[<h3>$[name]</h3>]]></text>
      </BalloonStyle>
    </Style>
    <Style id="icon-1899-0288D1-nodesc-highlight">
      <IconStyle>
        <color>ffd18802</color>
        <scale>1</scale>
        <Icon>
          <href>https://www.gstatic.com/mapspro/images/stock/503-wht-blank_maps.png</href>
        </Icon>
        <hotSpot x="32" xunits="pixels" y="64" yunits="insetPixels"/>
      </IconStyle>
      <LabelStyle>
        <scale>1</scale>
      </LabelStyle>
      <BalloonStyle>
        <text><![CDATA[<h3>$[name]</h3>]]></text>
      </BalloonStyle>
    </Style>
    <StyleMap id="icon-1899-0288D1-nodesc">
      <Pair>
        <key>normal</key>
        <styleUrl>#icon-1899-0288D1-nodesc-normal</styleUrl>
      </Pair>
      <Pair>
        <key>highlight</key>
        <styleUrl>#icon-1899-0288D1-nodesc-highlight</styleUrl>
      </Pair>
    </StyleMap>
    <Folder>
      <name>Capa sin título</name>
      <Placemark>
        <name>Frauenstraße 20</name>
        <styleUrl>#icon-1899-0288D1-nodesc</styleUrl>
        <Point>
          <coordinates>
            11.5782161,48.1343202,0
          </coordinates>
        </Point>
      </Placemark>
      <Placemark>
        <name>dm-drogerie markt</name>
        <styleUrl>#icon-1899-0288D1-nodesc</styleUrl>
        <Point>
          <coordinates>
            11.5707935,48.1381884,0
          </coordinates>
        </Point>
      </Placemark>
      <Placemark>
        <name>coords</name>
        <styleUrl>#icon-1899-0288D1-nodesc</styleUrl>
        <Point>
          <coordinates>
            11.5775277777778,48.1420555555556,0
          </coordinates>
        </Point>
      </Placemark>
      <Placemark>
        <name>Marienplatz</name>
        <styleUrl>#icon-1899-0288D1-nodesc</styleUrl>
        <Point>
          <coordinates>
            11.5754485,48.1373932,0
          </coordinates>
        </Point>
      </Placemark>
      <Placemark>
        <name>Cervecería de la Casa Real Múnich</name>
        <styleUrl>#icon-1899-0288D1-nodesc</styleUrl>
        <Point>
          <coordinates>
            11.5797494,48.1376373,0
          </coordinates>
        </Point>
      </Placemark>
      <Placemark>
        <name>Residenz</name>
        <styleUrl>#icon-1899-0288D1-nodesc</styleUrl>
        <Point>
          <coordinates>
            11.579486,48.1417978,0
          </coordinates>
        </Point>
      </Placemark>
      <Placemark>
        <name>Hofgarten</name>
        <styleUrl>#icon-1899-0288D1-nodesc</styleUrl>
        <Point>
          <coordinates>
            11.58,48.1427778,0
          </coordinates>
        </Point>
      </Placemark>
      <Placemark>
        <name>Isartor</name>
        <styleUrl>#icon-1899-0288D1-nodesc</styleUrl>
        <Point>
          <coordinates>
            11.5818379,48.1351053,0
          </coordinates>
        </Point>
      </Placemark>
      <Placemark>
        <name>Sendlinger-Tor-Platz</name>
        <styleUrl>#icon-1899-0288D1-nodesc</styleUrl>
        <Point>
          <coordinates>
            11.5668742,48.1337493,0
          </coordinates>
        </Point>
      </Placemark>
      <Placemark>
        <name>Karlsplatz</name>
        <styleUrl>#icon-1899-0288D1-nodesc</styleUrl>
        <Point>
          <coordinates>
            11.5660094,48.1396753,0
          </coordinates>
        </Point>
      </Placemark>
      <Placemark>
        <name>Palacio de Nymphenburg</name>
        <styleUrl>#icon-1899-0288D1-nodesc</styleUrl>
        <Point>
          <coordinates>
            11.5033143,48.1582675,0
          </coordinates>
        </Point>
      </Placemark>
      <Placemark>
        <name>Iglesia San Pedro</name>
        <styleUrl>#icon-1899-0288D1-nodesc</styleUrl>
        <Point>
          <coordinates>
            11.5756044,48.1366805,0
          </coordinates>
        </Point>
      </Placemark>
      <Placemark>
        <name>Catedral de Múnich</name>
        <styleUrl>#icon-1899-0288D1-nodesc</styleUrl>
        <Point>
          <coordinates>
            11.5730127,48.1386649,0
          </coordinates>
        </Point>
      </Placemark>
      <Placemark>
        <name>Deutsches Museum</name>
        <styleUrl>#icon-1899-0288D1-nodesc</styleUrl>
        <Point>
          <coordinates>
            11.5834522,48.1298707,0
          </coordinates>
        </Point>
      </Placemark>
      <Placemark>
        <name>BMW Museum</name>
        <styleUrl>#icon-1899-0288D1-nodesc</styleUrl>
        <Point>
          <coordinates>
            11.5590966,48.1768304,0
          </coordinates>
        </Point>
      </Placemark>
      <Placemark>
        <name>Faculty for Design - The Munich University of Applied Sciences</name>
        <styleUrl>#icon-1899-0288D1-nodesc</styleUrl>
        <Point>
          <coordinates>
            11.5539265,48.1547993,0
          </coordinates>
        </Point>
      </Placemark>
    </Folder>
  </Document>
</kml>
